{
  "colleges": [
    {
      "name": "문과대학",
      "image": "https://www.yonsei.ac.kr/sites/sc/atchmnfl/shortcut/3/temp_1744272240434100.jpg",
      "description": "문과대학은 가장 오랜 역사와 전통을 바탕으로 과거와 현재에 걸쳐 한국 인문학을 선도하고 있다.",
      "location": "외솔관 101-1호",
      "phone": "02-2123-2252~5",
      "departments": [
        {
          "name": "국어국문학",
          "officeLocation": "외솔관 214호",
          "phone": "02-2123-2265",
          "homepage": ""
        },
        {
          "name": "중어중문학",
          "officeLocation": "외솔관 318호",
          "phone": "02-2123-2285",
          "homepage": ""
        },
        {
          "name": "영어영문학",
          "officeLocation": "외솔관 322호",
          "phone": "02-2123-2300",
          "homepage": ""
        },
        {
          "name": "독어독문학",
          "officeLocation": "외솔관 420호",
          "phone": "02-2123-2330",
          "homepage": ""
        },
        {
          "name": "불어불문학",
          "officeLocation": "외솔관 418호",
          "phone": "02-2123-2345",
          "homepage": ""
        },
        {
          "name": "노어노문학",
          "officeLocation": "외솔관 218-1호",
          "phone": "02-2123-2360",
          "homepage": ""
        },
        {
          "name": "사학",
          "officeLocation": "외솔관 519호",
          "phone": "02-2123-2370",
          "homepage": ""
        },
        {
          "name": "철학",
          "officeLocation": "외솔관 522호",
          "phone": "02-2123-2390",
          "homepage": ""
        },
        {
          "name": "문헌정보학",
          "officeLocation": "위당관 423호",
          "phone": "02-2123-2405",
          "homepage": ""
        },
        {
          "name": "심리학",
          "officeLocation": "위당관 410호",
          "phone": "02-2123-2433",
          "homepage": ""
        }
      ]
    },

    {
      "name": "상경대학",
      "image": "https://www.yonsei.ac.kr/sites/sc/atchmnfl/shortcut/3/temp_1744272253208100.jpg",
      "description": "한국 상경계 최초로 개교한 역사 깊은 대학이며 경제학부와 응용통계학과로 구성된다.",
      "location": "대우관 본관 205호",
      "phone": "02-2123-2453",
      "departments": [
        {
          "name": "경제학부",
          "officeLocation": "대우관 본관 206호",
          "phone": "02-2123-7465"
        },
        {
          "name": "응용통계학",
          "officeLocation": "대우관 본관 205호",
          "phone": "02-2123-8535"
        }
      ]
    },

    {
      "name": "경영대학",
      "image": "https://www.yonsei.ac.kr/sites/sc/atchmnfl/shortcut/3/temp_1744272263793100.jpg",
      "description": "세계를 변화시키고 미래를 선도하는 크리에이티브 리더 배출을 목표로 한다.",
      "location": "경영관 406호",
      "phone": "02-2123-3258",
      "departments": [
        {
          "name": "경영학과",
          "officeLocation": "경영관 406호",
          "phone": "02-2123-3258"
        }
      ]
    },

    {
      "name": "이과대학",
      "image": "https://www.yonsei.ac.kr/sites/sc/atchmnfl/shortcut/3/temp_1744272275064100.jpg",
      "description": "창의적·봉사적 엘리트 육성과 기초과학 연구 프런티어 창출을 목표로 한다.",
      "location": "과학관",
      "phone": "02-2123-2552~6",
      "departments": [
        {
          "name": "수학",
          "officeLocation": "과학관 226B",
          "phone": "02-2123-2580"
        },
        {
          "name": "물리학",
          "officeLocation": "과학관 327A",
          "phone": "02-2123-2605"
        },
        {
          "name": "화학",
          "officeLocation": "과학관 423호",
          "phone": "02-2123-2630"
        },
        {
          "name": "지구시스템과학",
          "officeLocation": "과학원 2층",
          "phone": "02-2123-2665"
        },
        {
          "name": "천문우주학",
          "officeLocation": "과학관 610B",
          "phone": "02-2123-8224"
        },
        {
          "name": "대기과학",
          "officeLocation": "과학관 528A",
          "phone": "02-2123-8150"
        }
      ]
    },

    {
      "name": "공과대학",
      "image": "https://www.yonsei.ac.kr/sites/sc/atchmnfl/shortcut/3/temp_1744272287248100.jpg",
      "description": "공과대학은 세계 일류라는 새로운 목표를 향해 도약하고 있다. 미래 산업을 이끌어갈 새로운 연구 분야를 발굴하고, 이를 주도할 창의적인 인재를 육성하고 있다.",
      "location": "제1공학관",
      "phone": "02-2123-7775",
      "departments": [
        {
          "name": "화공생명공학과",
          "officeLocation": "GS칼텍스산학협력관",
          "phone": "02-2123-2750",
          "homepage": ""
        },
        {
          "name": "전기전자공학과",
          "officeLocation": "제4공학관 D301호",
          "phone": "02-2123-5876",
          "homepage": ""
        },
        {
          "name": "건축공학과",
          "officeLocation": "제1공학관 D301호",
          "phone": "02-2123-2780",
          "homepage": ""
        },
        {
          "name": "도시공학과",
          "officeLocation": "제1공학관",
          "phone": "02-2123-2890",
          "homepage": ""
        },
        {
          "name": "건설환경공학과",
          "officeLocation": "제1공학관 N304",
          "phone": "02-2123-2795",
          "homepage": ""
        },
        {
          "name": "기계공학과",
          "officeLocation": "제1공학관",
          "phone": "02-2123-4426",
          "homepage": ""
        },
        {
          "name": "신소재공학과",
          "officeLocation": "제2공학관 D301호",
          "phone": "02-2123-2830",
          "homepage": ""
        },
        {
          "name": "산업공학과",
          "officeLocation": "제4공학관",
          "phone": "02-2123-4010",
          "homepage": ""
        },
        {
          "name": "시스템반도체공학과",
          "officeLocation": "공학원 154D호",
          "phone": "02-2123-3323",
          "homepage": ""
        },
        {
          "name": "디스플레이융합공학과",
          "officeLocation": "공학원 150A호",
          "phone": "02-2123-7746",
          "homepage": ""
        },
        {
          "name": "디지털융합엔지니어링학과",
          "officeLocation": "공학원",
          "phone": "02-2123-7649",
          "homepage": ""
        },
        {
          "name": "지능형데이터·최적화학과",
          "officeLocation": "제1공학관",
          "phone": "",
          "homepage": ""
        },
        {
          "name": "배터리공학과",
          "officeLocation": "제1공학관 N607호",
          "phone": "02-2123-7790",
          "homepage": ""
        }
      ]
    },

    {
      "name": "생명시스템대학",
      "image": "https://www.yonsei.ac.kr/sites/sc/atchmnfl/shortcut/3/temp_1744272301112100.jpg",
      "description": "생명시스템대학은 기초생명과학, 응용생명공학 및 의생명과학 분야의 통합적 연구를 통해 생명과학의 미래 기술을 주도하는 세계 최고 수준의 교육 및 연구 기관으로 도약하고 있다.",
      "location": "첨단관 325호",
      "phone": "02-2123-5554",
      "departments": [
        {
          "name": "시스템생물학",
          "officeLocation": "과학원 S115호",
          "phone": "02-2123-2650",
          "homepage": ""
        },
        {
          "name": "생화학",
          "officeLocation": "과학원 S427호",
          "phone": "02-2123-2695",
          "homepage": ""
        },
        {
          "name": "생명공학",
          "officeLocation": "제2공학관 517호",
          "phone": "02-2123-2880",
          "homepage": ""
        }
      ]
    },

    {
      "name": "인공지능융합대학",
      "image": "https://www.yonsei.ac.kr/sites/sc/atchmnfl/shortcut/3/temp_1744272313995100.jpg",
      "description": "인공지능융합대학은 컴퓨터과학과 인공지능 분야에서 세계적인 전문인재 양성을 목표로 한다. 컴퓨터과학과 인공지능 분야의 핵심기술에 대한 선도적인 연구력을 바탕으로 최고의 교육을 제공하며, 다양한 융합프로그램을 통해 창의적이고 통찰력 있는 인재를 배출한다.",
      "location": "공학원 1층",
      "phone": "02-2123-5703",
      "departments": [
        {
          "name": "첨단컴퓨팅학부",
          "officeLocation": "공학원 153호",
          "phone": "02-2123-5704",
          "homepage": ""
        },
        {
          "name": "컴퓨터과학과",
          "officeLocation": "공학원 153호",
          "phone": "02-2123-5704",
          "homepage": ""
        },
        {
          "name": "인공지능학과",
          "officeLocation": "공학원 153호",
          "phone": "02-2123-5704",
          "homepage": ""
        },
        {
          "name": "인공지능시스템학과",
          "officeLocation": "공학원 153호",
          "phone": "02-2123-5704",
          "homepage": ""
        },
        {
          "name": "첨단융합공학부",
          "officeLocation": "진리관C",
          "phone": "032-749-5817",
          "homepage": ""
        },
        {
          "name": "IT융합공학전공",
          "officeLocation": "진리관C",
          "phone": "032-749-5817",
          "homepage": ""
        },
        {
          "name": "지능형반도체전공",
          "officeLocation": "진리관C",
          "phone": "032-749-5817",
          "homepage": ""
        }
      ]
    },

    {
      "name": "신과대학",
      "image": "https://www.yonsei.ac.kr/sites/sc/atchmnfl/shortcut/3/temp_1744272324218100.jpg",
      "description": "신과대학 신학과에서 배출된 졸업생 수는 2,004여 명으로 이들은 교회 목사뿐만 아니라 학계, 방송·언론계, 교육기관 등 다원 목회 분야에서 중추적인 역할을 하고 있다.",
      "location": "원두우신학관",
      "phone": "02-2123-2897~8",
      "departments": [
        {
          "name": "신학",
          "officeLocation": "원두우신학관",
          "phone": "02-2123-2897~8"
        }
      ]
    },

    {
      "name": "사회과학대학",
      "image": "https://www.yonsei.ac.kr/sites/sc/atchmnfl/shortcut/3/temp_1744272334448100.jpg",
      "description": "사회과학대학은 1946년 연희전문학교가 연희대학교로 승격되면서 정치외교학과 등이 창설된 후 정법대학으로 출범하여 발전해왔다.",
      "location": "연희관 219호",
      "phone": "02-2123-2934",
      "departments": [
        {
          "name": "정치외교학",
          "officeLocation": "연희관",
          "phone": "02-2123-2940"
        },
        {
          "name": "행정학",
          "officeLocation": "연희관 213호",
          "phone": "02-2123-2937"
        },
        {
          "name": "사회복지학",
          "officeLocation": "연희관 215호",
          "phone": "02-2123-4922"
        },
        {
          "name": "사회학",
          "officeLocation": "연희관 210호",
          "phone": "02-2123-2420"
        },
        {
          "name": "문화인류학",
          "officeLocation": "연희관 111-1호",
          "phone": "02-2123-5420"
        },
        {
          "name": "언론홍보영상학부",
          "officeLocation": "빌링슬리관",
          "phone": "02-2123-4923"
        }
      ]
    },

    {
      "name": "음악대학",
      "image": "https://www.yonsei.ac.kr/sites/sc/atchmnfl/shortcut/3/temp_1744272345730100.jpg",
      "description": "음악대학은 훌륭한 음악 역량과 폭넓은 교양을 바탕으로 사회에 기여하는 실천적 인재 양성을 목표로 한다.",
      "location": "음악대학",
      "phone": "02-2123-3016~8",
      "departments": [
        {
          "name": "교회음악과",
          "officeLocation": "음악대학",
          "phone": "02-2123-3016~8"
        },
        {
          "name": "성악과",
          "officeLocation": "음악대학",
          "phone": "02-2123-3016~8"
        },
        {
          "name": "피아노과",
          "officeLocation": "음악대학",
          "phone": "02-2123-3016~8"
        },
        {
          "name": "관현악과",
          "officeLocation": "음악대학",
          "phone": "02-2123-3016~8"
        },
        {
          "name": "작곡과",
          "officeLocation": "음악대학",
          "phone": "02-2123-3016~8"
        }
      ]
    },

    {
      "name": "생활과학대학",
      "image": "https://www.yonsei.ac.kr/sites/sc/atchmnfl/shortcut/3/temp_1744272358972100.jpg",
      "description": "생활과학대학은 인간과 생활환경 관련 서비스 및 산업 분야에 기여할 전문 인재 양성을 목표로 한다.",
      "location": "삼성관 110호",
      "phone": "02-2123-3092~6",
      "departments": [
        {
          "name": "의류환경학",
          "officeLocation": "삼성관 110호",
          "phone": "02-2123-3096"
        },
        {
          "name": "식품영양학",
          "officeLocation": "삼성관 110호",
          "phone": "02-2123-3093"
        },
        {
          "name": "실내건축학",
          "officeLocation": "삼성관 110호",
          "phone": "02-2123-3095"
        },
        {
          "name": "아동·가족학",
          "officeLocation": "삼성관 110호",
          "phone": "02-2123-3094"
        },
        {
          "name": "통합디자인학",
          "officeLocation": "삼성관 110호",
          "phone": "02-2123-3092"
        }
      ]
    },

    {
      "name": "교육과학대학",
      "image": "https://www.yonsei.ac.kr/sites/sc/atchmnfl/shortcut/3/temp_1744272369399100.jpg",
      "description": "교육과학대학은 자유와 진리를 추구하며 교육 및 체육 전문가 양성을 목표로 한다.",
      "location": "교육과학관 401호",
      "phone": "02-2123-3163~4",
      "departments": [
        {
          "name": "교육학",
          "officeLocation": "교육과학관 420호",
          "phone": "02-2123-3170"
        },
        {
          "name": "체육교육학",
          "officeLocation": "스포츠과학관 312호",
          "phone": "02-2123-3185"
        },
        {
          "name": "스포츠응용산업학",
          "officeLocation": "스포츠과학관 305호",
          "phone": "02-2123-6190"
        }
      ]
    },

    {
      "name": "학부대학",
      "image": "https://www.yonsei.ac.kr/sites/sc/atchmnfl/shortcut/3/temp_1744272382225100.jpg",
      "description": "학부대학은 신입생 교양교육 및 학사지도를 담당하며 전문성을 확보하고 있다.",
      "location": "[신촌] 백양관 N311호 / [국제] 자유관A 604호",
      "phone": "[신촌] 02-2123-3032 / [국제] 032-749-3131",
      "departments": []
    },

    {
      "name": "언더우드국제대학",
      "image": "https://www.yonsei.ac.kr/sites/sc/atchmnfl/shortcut/3/temp_1744272393712100.jpg",
      "description": "UIC는 전 과목 영어로 운영되는 국제형 리버럴아츠 대학으로 세계적 인재를 양성한다.",
      "location": "[신촌] 대우관 별관 301호 / [국제] Veritas Hall B 420",
      "phone": "[신촌] 02-2123-3942 / [국제] 032-749-3708",
      "departments": []
    },

    {
      "name": "글로벌인재대학",
      "image": "https://www.yonsei.ac.kr/sites/sc/atchmnfl/shortcut/3/temp_1744272410373100.jpg",
      "description": "해외 교육 배경을 가진 학생들에게 한국 사회 이해와 국제 역량을 키우는 교육 프로그램을 제공한다.",
      "location": "Lee Youn Jae Hall",
      "phone": "+82-2-2123-3206",
      "departments": []
    },

    {
      "name": "의과대학",
      "image": "https://www.yonsei.ac.kr/sites/sc/atchmnfl/shortcut/3/temp_1744272423976100.jpg",
      "description": "의과대학은 의학 전문 교육을 통해 인류에 이바지할 지도자를 양성한다.",
      "location": "의과대학",
      "phone": "02-2228-2000",
      "departments": []
    },

    {
      "name": "치과대학",
      "image": "https://www.yonsei.ac.kr/sites/sc/atchmnfl/shortcut/3/temp_1744271601706100.jpg",
      "description": "치과대학은 치의학 전문 인재를 양성하며 사회에 기여하는 교육을 제공한다.",
      "location": "치과대학",
      "phone": "02-2228-3012",
      "departments": []
    },
    {
      "name": "간호대학",
      "image": "https://www.yonsei.ac.kr/sites/sc/atchmnfl/shortcut/3/temp_1744272443991100.jpg",
      "description": "간호대학은 전문성과 지도력을 갖춘 간호사를 양성하는 것을 목표로 한다.",
      "location": "간호대학",
      "phone": "02-2228-3235",
      "departments": []
    },
    {
      "name": "약학대학",
      "image": "https://www.yonsei.ac.kr/sites/sc/atchmnfl/shortcut/3/temp_1744272455266100.jpg",
      "description": "약학대학은 다양한 약학 분야 교육을 제공하며 전문 인재를 양성한다.",
      "location": "진리관D",
      "phone": "032-749-4103",
      "departments": []
    }
  ]
}
